{
  "1": {
    "hours": "-08:00",
    "offset": -8,
    "abbr": "PST",
    "name": "America/Los_Angeles"
  },
  "2": {
    "hours": "-05:00",
    "offset": -5,
    "abbr": "EST",
    "name": "America/New_York"
  },
  "3": {
    "hours": "-07:00",
    "offset": -7,
    "abbr": "MST",
    "name": "America/Denver"
  },
  "4": {
    "hours": "-06:00",
    "offset": -6,
    "abbr": "CST",
    "name": "America/Chicago"
  },
  "5": {
    "hours": "-07:00",
    "offset": -7,
    "abbr": "MST",
    "name": "America/Boise"
  },
  "6": {
    "hours": "-05:00",
    "offset": -5,
    "abbr": "EST",
    "name": "America/Indiana/Indianapolis"
  },
  "7": {
    "hours": "-05:00",
    "offset": -5,
    "abbr": "EST",
    "name": "America/Detroit"
  },
  "8": {
    "hours": "-06:00",
    "offset": -6,
    "abbr": "CST",
    "name": "America/North_Dakota/Beulah"
  },
  "9": {
    "hours": "-06:00",
    "offset": -6,
    "abbr": "CST",
    "name": "America/Winnipeg"
  },
  "10": {
    "hours": "-07:00",
    "offset": -7,
    "abbr": "MST",
    "name": "America/Phoenix"
  },
  "11": {
    "hours": "-05:00",
    "offset": -5,
    "abbr": "EST",
    "name": "America/Indiana/Vincennes"
  },
  "12": {
    "hours": "-05:00",
    "offset": -5,
    "abbr": "EST",
    "name": "America/Indiana/Marengo"
  },
  "13": {
    "hours": "-06:00",
    "offset": -6,
    "abbr": "CST",
    "name": "America/Regina"
  },
  "14": {
    "hours": "-06:00",
    "offset": -6,
    "abbr": "CST",
    "name": "America/Indiana/Knox"
  },
  "15": {
    "hours": "-05:00",
    "offset": -5,
    "abbr": "EST",
    "name": "America/Toronto"
  },
  "16": {
    "hours": "-05:00",
    "offset": -5,
    "abbr": "EST",
    "name": "America/Kentucky/Louisville"
  },
  "17": {
    "hours": "-08:00",
    "offset": -8,
    "abbr": "PST",
    "name": "America/Vancouver"
  },
  "18": {
    "hours": "-05:00",
    "offset": -5,
    "abbr": "EST",
    "name": "America/Indiana/Petersburg"
  },
  "19": {
    "hours": "-06:00",
    "offset": -6,
    "abbr": "CST",
    "name": "America/Menominee"
  },
  "20": {
    "hours": "-05:00",
    "offset": -5,
    "abbr": "EST",
    "name": "America/Kentucky/Monticello"
  }
}